{
  "type": "FeatureCollection",
  "features": [
    {
      "type": "Feature",
      "geometry": {
        "type": "Point",
        "coordinates": [
          -93.45357987,
          44.798566914
        ]
      },
      "properties": {
        "name": "Photo Memories",
        "rgl_id": 300001,
        "section": "Front Gate",
        "sells_fastlane": "No"
      }
    },
    {
      "type": "Feature",
      "geometry": {
        "type": "Point",
        "coordinates": [
          -93.4541842,
          44.798780849
        ]
      },
      "properties": {
        "name": "Plaza Shopper",
        "rgl_id": 300002,
        "section": "Northern Section",
        "sells_fastlane": "Yes"
      }
    },
    {
      "type": "Feature",
      "geometry": {
        "type": "Point",
        "coordinates": [
          -93.454191461,
          44.798886004
        ]
      },
      "properties": {
        "name": "Sweet!",
        "rgl_id": 300003,
        "section": "Northern Section",
        "sells_fastlane": "Yes"
      }
    },
    {
      "type": "Feature",
      "geometry": {
        "type": "Point",
        "coordinates": [
          -93.454231803,
          44.799004326
        ]
      },
      "properties": {
        "name": "Attitudes",
        "rgl_id": 300004,
        "section": "Northern Section",
        "sells_fastlane": "No"
      }
    },
    {
      "type": "Feature",
      "geometry": {
        "type": "Point",
        "coordinates": [
          -93.454305065,
          44.79833836
        ]
      },
      "properties": {
        "name": "Body Art",
        "rgl_id": 300005,
        "section": "Southern Section",
        "sells_fastlane": "No"
      }
    },
    {
      "type": "Feature",
      "geometry": {
        "type": "Point",
        "coordinates": [
          -93.455356766,
          44.798274847
        ]
      },
      "properties": {
        "name": "Games Area (Midway)",
        "rgl_id": 300006,
        "section": "Southern Section",
        "sells_fastlane": "No"
      }
    },
    {
      "type": "Feature",
      "geometry": {
        "type": "Point",
        "coordinates": [
          -93.456036456,
          44.798658901
        ]
      },
      "properties": {
        "name": "Northern Lights Novelties",
        "rgl_id": 300007,
        "section": "Southern Section",
        "sells_fastlane": "Yes"
      }
    },
    {
      "type": "Feature",
      "geometry": {
        "type": "Point",
        "coordinates": [
          -93.456184109,
          44.798919783
        ]
      },
      "properties": {
        "name": "Caricatures",
        "rgl_id": 300008,
        "section": "Southern Section",
        "sells_fastlane": "No"
      }
    },
    {
      "type": "Feature",
      "geometry": {
        "type": "Point",
        "coordinates": [
          -93.456289269,
          44.800176084
        ]
      },
      "properties": {
        "name": "SNOOPY Boutique",
        "rgl_id": 300009,
        "section": "Northern Section",
        "sells_fastlane": "Yes"
      }
    },
    {
      "type": "Feature",
      "geometry": {
        "type": "Point",
        "coordinates": [
          -93.456673597,
          44.798994211
        ]
      },
      "properties": {
        "name": "Basketball Game",
        "rgl_id": 300010,
        "section": "Southern Section",
        "sells_fastlane": "No"
      }
    },
    {
      "type": "Feature",
      "geometry": {
        "type": "Point",
        "coordinates": [
          -93.457352587,
          44.798671191
        ]
      },
      "properties": {
        "name": "Hi-Test Arcade",
        "rgl_id": 300011,
        "section": "Southern Section",
        "sells_fastlane": "No"
      }
    },
    {
      "type": "Feature",
      "geometry": {
        "type": "Point",
        "coordinates": [
          -93.4587766,
          44.798782216
        ]
      },
      "properties": {
        "name": "Wild Thing Ride Photos",
        "rgl_id": 300012,
        "section": "Southern Section",
        "sells_fastlane": "No"
      }
    },
    {
      "type": "Feature",
      "geometry": {
        "type": "Point",
        "coordinates": [
          -93.458828411,
          44.799594804
        ]
      },
      "properties": {
        "name": "Airbrush",
        "rgl_id": 300013,
        "section": "Western Section",
        "sells_fastlane": "No"
      }
    },
    {
      "type": "Feature",
      "geometry": {
        "type": "Point",
        "coordinates": [
          -93.4587766,
          44.799734896
        ]
      },
      "properties": {
        "name": "Games Area (Mad Mouse)",
        "rgl_id": 300014,
        "section": "Western Section",
        "sells_fastlane": "No"
      }
    },
    {
      "type": "Feature",
      "geometry": {
        "type": "Point",
        "coordinates": [
          -93.459617961,
          44.800335076
        ]
      },
      "properties": {
        "name": "Antique Photo Shop",
        "rgl_id": 300015,
        "section": "Western Section",
        "sells_fastlane": "No"
      }
    },
    {
      "type": "Feature",
      "geometry": {
        "type": "Point",
        "coordinates": [
          -93.46029012,
          44.800274618
        ]
      },
      "properties": {
        "name": "The General Store",
        "rgl_id": 300016,
        "section": "Western Section",
        "sells_fastlane": "Yes"
      }
    },
    {
      "type": "Feature",
      "geometry": {
        "type": "Point",
        "coordinates": [
          -93.460904664,
          44.800430322
        ]
      },
      "properties": {
        "name": "Outpost: Renegade Photos",
        "rgl_id": 300017,
        "section": "Western Section",
        "sells_fastlane": "No"
      }
    },
    {
      "type": "Feature",
      "geometry": {
        "type": "Point",
        "coordinates": [
          -93.460302169,
          44.799317062
        ]
      },
      "properties": {
        "name": "Dockside Supplies",
        "rgl_id": 300018,
        "section": "Soak City",
        "sells_fastlane": "No"
      }
    },
    {
      "type": "Feature",
      "geometry": {
        "type": "Point",
        "coordinates": [
          -93.459444456,
          44.799341612
        ]
      },
      "properties": {
        "name": "Cabana Rental",
        "rgl_id": 300019,
        "section": "Soak City",
        "sells_fastlane": "No"
      }
    },
    {
      "type": "Feature",
      "geometry": {
        "type": "Point",
        "coordinates": [
          -93.458656972,
          44.799612147
        ]
      },
      "properties": {
        "name": "Body Art",
        "rgl_id": 300020,
        "section": "Western Section",
        "sells_fastlane": "No"
      }
    },
    {
      "type": "Feature",
      "geometry": {
        "type": "Point",
        "coordinates": [
          -93.457855631,
          44.798945547
        ]
      },
      "properties": {
        "name": "Caricatures",
        "rgl_id": 300021,
        "section": "Southern Section",
        "sells_fastlane": "No"
      }
    },
    {
      "type": "Feature",
      "geometry": {
        "type": "Point",
        "coordinates": [
          -93.457672476,
          44.799124365
        ]
      },
      "properties": {
        "name": "Basketball Game",
        "rgl_id": 300022,
        "section": "Southern Section",
        "sells_fastlane": "No"
      }
    },
    {
      "type": "Feature",
      "geometry": {
        "type": "Point",
        "coordinates": [
          -93.458134286,
          44.799782638
        ]
      },
      "properties": {
        "name": "Basketball Game",
        "rgl_id": 300023,
        "section": "Western Section",
        "sells_fastlane": "No"
      }
    }
  ]
}